route_id,VDS_id,longitude,latitude,movers_2023,movers_2024,avg_speed_2023,avg_speed_2024,movers_diff,avg_speed_diff,location
0,VDS0023,127.354644,36.359348,4325.0,4032,46.34615384615385,41.90735294117647,-293.0,-4.438800904977377,봉명동 670(둔산방향)
1,VDS0104,127.345495,36.348277,1296.0,1162,50.54615384615384,53.9819587628866,-134.0,3.4358049167327565,봉명동 1039-2(도안7단지예미지후문)
2,VDS0107,127.349163,36.3357,1074.0,1035,51.77692307692307,44.15075376884422,-39.0,-7.62616930807885,원신흥동 523(가수원동방향 150M 교통표지판부근)
3,VDS0108,127.349503,36.33567,1633.0,1782,55.2,59.633401221995925,149.0,4.433401221995922,원신흥동 514(VDS0107건너편)
4,VDS0110,127.343517,36.33197,1524.0,1506,64.02307692307693,64.24864864864865,-18.0,0.22557172557172578,도안동 1511(예미지 11단지 버스정류장 뒤쪽)
5,VDS0112,127.347811,36.32365,1990.0,1854,45.684615384615384,49.205673758865245,-136.0,3.5210583742498613,"도안동 1525(도안동 307-2, 1505동 도로변)"
6,VDS0113,127.348111,36.323514,865.0,828,47.07692307692308,50.58288770053476,-37.0,3.505964623611682,"도안동 1528(도안동 306-2, VDS0112 건너편)"
7,VDS0124,127.352844,36.331997,1577.0,1555,74.05384615384615,70.60598503740648,-22.0,-3.447861116439668,도안동427-18
