route_id,VDS_id,longitude,latitude,movers_2023,movers_2024,avg_speed_2023,avg_speed_2024,movers_diff,avg_speed_diff,location
0,VDS0023,127.354644,36.359348,3697.0,3101,38.300000000000004,30.063291139240505,-596.0,-8.2367088607595,봉명동 670(둔산방향)
1,VDS0104,127.345495,36.348277,846.0,1195,36.392307692307696,44.19047619047619,349.0,7.798168498168494,봉명동 1039-2(도안7단지예미지후문)
2,VDS0107,127.349163,36.3357,637.0,570,43.94615384615385,47.45263157894737,-67.0,3.5064777327935204,원신흥동 523(가수원동방향 150M 교통표지판부근)
3,VDS0108,127.349503,36.33567,3395.0,2684,51.56923076923077,55.166023166023166,-711.0,3.596792396792395,원신흥동 514(VDS0107건너편)
4,VDS0110,127.343517,36.33197,1241.0,1142,67.59230769230768,67.18944099378882,-99.0,-0.4028666985188636,도안동 1511(예미지 11단지 버스정류장 뒤쪽)
5,VDS0112,127.347811,36.32365,1643.0,1328,55.130769230769225,54.67049808429119,-315.0,-0.4602711464780356,"도안동 1525(도안동 307-2, 1505동 도로변)"
6,VDS0113,127.348111,36.323514,292.0,1155,46.9076923076923,48.51091703056768,863.0,1.6032247228753818,"도안동 1528(도안동 306-2, VDS0112 건너편)"
7,VDS0124,127.352844,36.331997,1786.0,1470,71.29230769230769,69.98258706467662,-316.0,-1.3097206276310658,도안동427-18
