route_id,VDS_id,longitude,latitude,movers_2023,movers_2024,avg_speed_2023,avg_speed_2024,movers_diff,avg_speed_diff,location
0,VDS0023,127.354644,36.359348,8229.0,8146,49.711999999999996,47.912191582002905,-83.0,-1.7998084179970917,봉명동 670(둔산방향)
1,VDS0104,127.345495,36.348277,2515.0,2245,50.943999999999996,52.52948717948718,-270.0,1.5854871794871812,봉명동 1039-2(도안7단지예미지후문)
2,VDS0107,127.349163,36.3357,1956.0,1985,47.824,43.90379746835443,29.0,-3.9202025316455646,원신흥동 523(가수원동방향 150M 교통표지판부근)
3,VDS0108,127.349503,36.33567,3191.0,3580,55.52400000000001,59.79282051282051,389.0,4.268820512820504,원신흥동 514(VDS0107건너편)
4,VDS0110,127.343517,36.33197,3056.0,2891,64.54400000000001,64.01643835616439,-165.0,-0.5275616438356252,도안동 1511(예미지 11단지 버스정류장 뒤쪽)
5,VDS0112,127.347811,36.32365,3839.0,3586,46.852,49.43478260869565,-253.0,2.582782608695652,"도안동 1525(도안동 307-2, 1505동 도로변)"
6,VDS0113,127.348111,36.323514,1691.0,1685,47.644000000000005,49.60981912144703,-6.0,1.9658191214470264,"도안동 1528(도안동 306-2, VDS0112 건너편)"
7,VDS0124,127.352844,36.331997,3185.0,3154,70.548,69.50674846625766,-31.0,-1.04125153374234,도안동427-18
