route_id,VDS_id,longitude,latitude,movers_2023,movers_2024,avg_speed_2023,avg_speed_2024,movers_diff,avg_speed_diff,location
0,VDS0022,127.354784,36.359818,6679.0,6477,53.343999999999994,59.94487427466151,-202.0,6.600874274661514,봉명동 15-2(유성방향)
1,VDS0103,127.345698,36.348726,1824.0,2528,52.98400000000001,54.5974930362117,704.0,1.6134930362116933,봉명동 1062
2,VDS0107,127.349163,36.3357,2024.0,1974,49.764,45.693023255813955,-50.0,-4.070976744186048,원신흥동 523(가수원동방향 150M 교통표지판부근)
3,VDS0108,127.349503,36.33567,3448.0,3612,55.224,58.48802395209581,164.0,3.264023952095812,원신흥동 514(VDS0107건너편)
4,VDS0109,127.343543,36.332378,2280.0,0,57.896,0.0,-2280.0,-57.896,원신흥동528-5
5,VDS0112,127.347811,36.32365,3862.0,3469,47.22,50.26752767527675,-393.0,3.047527675276754,"도안동 1525(도안동 307-2, 1505동 도로변)"
6,VDS0113,127.348111,36.323514,985.0,1684,40.004,46.541666666666664,699.0,6.5376666666666665,"도안동 1528(도안동 306-2, VDS0112 건너편)"
7,VDS0123,127.352836,36.332246,3354.0,3580,56.244,52.190934065934066,226.0,-4.053065934065934,원신흥동49-4
