route_id,VDS_id,longitude,latitude,movers_2023,movers_2024,avg_speed_2023,avg_speed_2024,movers_diff,avg_speed_diff,location
0,VDS0022,127.354784,36.359818,2952.0,2671,58.20769230769229,57.38067061143984,-281.0,-0.8270216962524515,봉명동 15-2(유성방향)
1,VDS0103,127.345698,36.348726,652.0,613,52.5923076923077,45.051383399209485,-39.0,-7.5409242930982145,봉명동 1062
2,VDS0107,127.349163,36.3357,616.0,783,44.592307692307685,40.65873015873016,167.0,-3.9335775335775267,원신흥동 523(가수원동방향 150M 교통표지판부근)
3,VDS0108,127.349503,36.33567,776.0,1460,62.51538461538461,54.733333333333334,684.0,-7.7820512820512775,원신흥동 514(VDS0107건너편)
4,VDS0109,127.343543,36.332378,757.0,0,61.623076923076916,0.0,-757.0,-61.623076923076916,원신흥동528-5
5,VDS0112,127.347811,36.32365,489.0,1020,55.13076923076923,51.43693693693694,531.0,-3.693832293832294,"도안동 1525(도안동 307-2, 1505동 도로변)"
6,VDS0113,127.348111,36.323514,488.0,711,33.03846153846154,47.337278106508876,223.0,14.298816568047336,"도안동 1528(도안동 306-2, VDS0112 건너편)"
7,VDS0123,127.352836,36.332246,1402.0,1190,50.00769230769231,50.72258064516129,-212.0,0.7148883374689774,원신흥동49-4
