route_id,VDS_id,longitude,latitude,movers_2023,movers_2024,avg_speed_2023,avg_speed_2024,movers_diff,avg_speed_diff,location
0,VDS0023,127.354644,36.359348,4023,3914,53.70809248554913,54.022662889518415,-109,0.3145704039692845,봉명동 670(둔산방향)
1,VDS0104,127.345495,36.348277,1243,1177,52.52970297029703,52.80295566502463,-66,0.27325269472760283,봉명동 1039-2(도안7단지예미지후문)
2,VDS0107,127.349163,36.3357,824,887,43.03508771929825,43.005102040816325,63,-0.02998567848192124,원신흥동 523(가수원동방향 150M 교통표지판부근)
3,VDS0108,127.349503,36.33567,0,1703,0.0,57.58004158004158,1703,57.58004158004158,원신흥동 514(VDS0107건너편)
4,VDS0110,127.343517,36.33197,1461,0,64.37534246575342,0.0,-1461,-64.37534246575342,도안동 1511(예미지 11단지 버스정류장 뒤쪽)
5,VDS0112,127.347811,36.32365,1804,1589,48.23131672597865,48.583657587548636,-215,0.352340861569985,"도안동 1525(도안동 307-2, 1505동 도로변)"
6,VDS0113,127.348111,36.323514,0,765,0.0,49.0,765,49.0,"도안동 1528(도안동 306-2, VDS0112 건너편)"
7,VDS0124,127.352844,36.331997,1727,1474,65.61904761904762,64.44472361809045,-253,-1.1743240009571707,도안동427-18
