route_id,VDS_id,longitude,latitude,movers_2023,movers_2024,avg_speed_2023,avg_speed_2024,movers_diff,avg_speed_diff,location
0,VDS0023,127.354644,36.359348,6214,6028,54.25533480500368,52.86125852918878,-186,-1.3940762758148963,봉명동 670(둔산방향)
1,VDS0104,127.345495,36.348277,1866,2054,54.38196286472149,51.66209476309227,188,-2.719868101629217,봉명동 1039-2(도안7단지예미지후문)
2,VDS0107,127.349163,36.3357,1150,1591,44.151785714285715,40.38899803536346,441,-3.7627876789222583,원신흥동 523(가수원동방향 150M 교통표지판부근)
3,VDS0108,127.349503,36.33567,0,3036,0.0,54.214444444444446,3036,54.214444444444446,원신흥동 514(VDS0107건너편)
4,VDS0110,127.343517,36.33197,1835,0,65.32622950819672,0.0,-1835,-65.32622950819672,도안동 1511(예미지 11단지 버스정류장 뒤쪽)
5,VDS0112,127.347811,36.32365,2575,2129,51.835443037974684,50.91294642857143,-446,-0.9224966094032538,"도안동 1525(도안동 307-2, 1505동 도로변)"
6,VDS0113,127.348111,36.323514,0,1506,0.0,46.436974789915965,1506,46.436974789915965,"도안동 1528(도안동 306-2, VDS0112 건너편)"
7,VDS0124,127.352844,36.331997,2330,2123,68.32522407170295,57.49476439790576,-207,-10.830459673797186,도안동427-18
