route_id,VDS_id,longitude,latitude,movers_2023,movers_2024,avg_speed_2023,avg_speed_2024,movers_diff,avg_speed_diff,location
0,VDS0023,127.354644,36.359348,3351.0,3318,52.99230769230769,54.785185185185185,-33.0,1.7928774928774942,봉명동 670(둔산방향)
1,VDS0104,127.345495,36.348277,974.0,723,54.03076923076923,54.690265486725664,-251.0,0.6594962559564337,봉명동 1039-2(도안7단지예미지후문)
2,VDS0107,127.349163,36.3357,698.0,636,43.26153846153846,44.54545454545455,-62.0,1.2839160839160897,원신흥동 523(가수원동방향 150M 교통표지판부근)
3,VDS0108,127.349503,36.33567,1501.0,1478,54.79230769230769,58.10913140311804,-23.0,3.316823710810354,원신흥동 514(VDS0107건너편)
4,VDS0110,127.343517,36.33197,982.0,769,62.04615384615385,64.87179487179488,-213.0,2.8256410256410263,도안동 1511(예미지 11단지 버스정류장 뒤쪽)
5,VDS0112,127.347811,36.32365,1316.0,1112,51.76923076923077,52.29385964912281,-204.0,0.5246288798920418,"도안동 1525(도안동 307-2, 1505동 도로변)"
6,VDS0113,127.348111,36.323514,746.0,730,40.60000000000001,49.666666666666664,-16.0,9.066666666666656,"도안동 1528(도안동 306-2, VDS0112 건너편)"
7,VDS0124,127.352844,36.331997,1460.0,1118,67.56923076923077,68.06666666666666,-342.0,0.4974358974358921,도안동427-18
