route_id,VDS_id,longitude,latitude,movers_2023,movers_2024,avg_speed_2023,avg_speed_2024,movers_diff,avg_speed_diff,location
0,VDS0023,127.354644,36.359348,6257.0,6076,53.891999999999996,55.26721556886228,-181.0,1.3752155688622807,봉명동 670(둔산방향)
1,VDS0104,127.345495,36.348277,1713.0,1386,54.48,54.85864661654136,-327.0,0.37864661654136,봉명동 1039-2(도안7단지예미지후문)
2,VDS0107,127.349163,36.3357,1276.0,1168,43.676,45.031662269129285,-108.0,1.355662269129283,원신흥동 523(가수원동방향 150M 교통표지판부근)
3,VDS0108,127.349503,36.33567,2745.0,2830,55.44,58.587125416204216,85.0,3.1471254162042186,원신흥동 514(VDS0107건너편)
4,VDS0110,127.343517,36.33197,1769.0,1483,63.56400000000001,65.05,-286.0,1.48599999999999,도안동 1511(예미지 11단지 버스정류장 뒤쪽)
5,VDS0112,127.347811,36.32365,2410.0,2076,52.29599999999999,52.8255033557047,-334.0,0.5295033557047049,"도안동 1525(도안동 307-2, 1505동 도로변)"
6,VDS0113,127.348111,36.323514,1193.0,1407,37.632000000000005,50.317142857142855,214.0,12.68514285714285,"도안동 1528(도안동 306-2, VDS0112 건너편)"
7,VDS0124,127.352844,36.331997,2489.0,2066,68.64000000000001,68.12043301759134,-423.0,-0.5195669824086764,도안동427-18
